{
  "type": "FeatureCollection",
  "features": [
    {
      "type": "Feature",
      "geometry": {
        "type": "Point",
        "coordinates": [
          -77.459023,
          39.016363
        ]
      },
      "properties": {
        "id": 1,
        "name": "Equinix DC1-DC15, DC21 - Ashburn",
        "address": "21715 Filigree Ct",
        "net_count": 473,
        "ix_count": 7,
        "type": "facility"
      }
    },
    {
      "type": "Feature",
      "geometry": {
        "type": "Point",
        "coordinates": [
          -122.397923,
          37.723407
        ]
      },
      "properties": {
        "id": 2,
        "name": "Digital Realty SFO (200 Paul)",
        "address": "200 Paul Ave",
        "net_count": 41,
        "ix_count": 2,
        "type": "facility"
      }
    },
    {
      "type": "Feature",
      "geometry": {
        "type": "Point",
        "coordinates": [
          -96.81955,
          32.800955
        ]
      },
      "properties": {
        "id": 4,
        "name": "Equinix DA1 - Dallas",
        "address": "1950 N Stemmons Fwy",
        "net_count": 157,
        "ix_count": 5,
        "type": "facility"
      }
    },
    {
      "type": "Feature",
      "geometry": {
        "type": "Point",
        "coordinates": [
          -122.160775,
          37.445896
        ]
      },
      "properties": {
        "id": 5,
        "name": "Equinix SV8 - Silicon Valley, Palo Alto",
        "address": "529 Bryant St",
        "net_count": 71,
        "ix_count": 4,
        "type": "facility"
      }
    },
    {
      "type": "Feature",
      "geometry": {
        "type": "Point",
        "coordinates": [
          -121.782967,
          37.241767
        ]
      },
      "properties": {
        "id": 6,
        "name": "Equinix SV1/SV5/SV10 - Silicon Valley, San Jose",
        "address": "11 Great Oaks Blvd",
        "net_count": 275,
        "ix_count": 8,
        "type": "facility"
      }
    },
    {
      "type": "Feature",
      "geometry": {
        "type": "Point",
        "coordinates": [
          -87.618342,
          41.85365
        ]
      },
      "properties": {
        "id": 7,
        "name": "Equinix CH1/CH2/CH4 - Chicago",
        "address": "350 E Cermak Rd",
        "net_count": 315,
        "ix_count": 7,
        "type": "facility"
      }
    },
    {
      "type": "Feature",
      "geometry": {
        "type": "Point",
        "coordinates": [
          -118.2573,
          34.047501
        ]
      },
      "properties": {
        "id": 8,
        "name": "Equinix LA1 - Los Angeles",
        "address": "600 W 7th St",
        "net_count": 147,
        "ix_count": 6,
        "type": "facility"
      }
    },
    {
      "type": "Feature",
      "geometry": {
        "type": "Point",
        "coordinates": [
          -74.173402,
          40.736844
        ]
      },
      "properties": {
        "id": 9,
        "name": "Equinix NY1 - New York, Newark",
        "address": "165 Halsey St",
        "net_count": 33,
        "ix_count": 2,
        "type": "facility"
      }
    },
    {
      "type": "Feature",
      "geometry": {
        "type": "Point",
        "coordinates": [
          -74.008299,
          40.717723
        ]
      },
      "properties": {
        "id": 10,
        "name": "Digital Realty NYC (60 Hudson)",
        "address": "60 Hudson St",
        "net_count": 153,
        "ix_count": 8,
        "type": "facility"
      }
    },
    {
      "type": "Feature",
      "geometry": {
        "type": "Point",
        "coordinates": [
          -84.39153,
          33.755456
        ]
      },
      "properties": {
        "id": 11,
        "name": "Equinix AT2/AT3 - Atlanta",
        "address": "56 Marietta St NW",
        "net_count": 27,
        "ix_count": 1,
        "type": "facility"
      }
    },
    {
      "type": "Feature",
      "geometry": {
        "type": "Point",
        "coordinates": [
          -79.384128,
          43.644672
        ]
      },
      "properties": {
        "id": 12,
        "name": "Equinix TR1 - Toronto",
        "address": "151 Front St",
        "net_count": 42,
        "ix_count": 5,
        "type": "facility"
      }
    },
    {
      "type": "Feature",
      "geometry": {
        "type": "Point",
        "coordinates": [
          -80.193157,
          25.782648
        ]
      },
      "properties": {
        "id": 15,
        "name": "Equinix MI1 - Miami, NOTA",
        "address": "50 NE 9th St",
        "net_count": 293,
        "ix_count": 8,
        "type": "facility"
      }
    },
    {
      "type": "Feature",
      "geometry": {
        "type": "Point",
        "coordinates": [
          -74.003387,
          40.741469
        ]
      },
      "properties": {
        "id": 16,
        "name": "Digital Realty NYC (111 8th Ave)",
        "address": "111 8th Ave",
        "net_count": 128,
        "ix_count": 5,
        "type": "facility"
      }
    },
    {
      "type": "Feature",
      "geometry": {
        "type": "Point",
        "coordinates": [
          4.950837,
          52.356394
        ]
      },
      "properties": {
        "id": 18,
        "name": "NIKHEF Amsterdam",
        "address": "Science Park 105",
        "net_count": 392,
        "ix_count": 24,
        "type": "facility"
      }
    },
    {
      "type": "Feature",
      "geometry": {
        "type": "Point",
        "coordinates": [
          -118.255564,
          34.047942
        ]
      },
      "properties": {
        "id": 19,
        "name": "CoreSite - Los Angeles (LA1) One Wilshire",
        "address": "624 S. Grand Ave.",
        "net_count": 326,
        "ix_count": 5,
        "type": "facility"
      }
    },
    {
      "type": "Feature",
      "geometry": {
        "type": "Point",
        "coordinates": [
          -121.891649,
          37.334147
        ]
      },
      "properties": {
        "id": 20,
        "name": "CoreSite - San Jose (SV1)",
        "address": "55 S. Market Street",
        "net_count": 56,
        "ix_count": 4,
        "type": "facility"
      }
    },
    {
      "type": "Feature",
      "geometry": {
        "type": "Point",
        "coordinates": [
          -122.392048,
          37.783322
        ]
      },
      "properties": {
        "id": 21,
        "name": "FedConnect San Francisco",
        "address": "60 Federal Street",
        "net_count": 0,
        "ix_count": 0,
        "type": "facility"
      }
    },
    {
      "type": "Feature",
      "geometry": {
        "type": "Point",
        "coordinates": [
          -118.255186,
          34.048428
        ]
      },
      "properties": {
        "id": 22,
        "name": "JMA NAC Los Angeles",
        "address": "530 West 6th Street",
        "net_count": 1,
        "ix_count": 1,
        "type": "facility"
      }
    },
    {
      "type": "Feature",
      "geometry": {
        "type": "Point",
        "coordinates": [
          -122.390509,
          37.788669
        ]
      },
      "properties": {
        "id": 23,
        "name": "Digital Realty SFO (365 Main)",
        "address": "365 Main Street",
        "net_count": 30,
        "ix_count": 3,
        "type": "facility"
      }
    },
    {
      "type": "Feature",
      "geometry": {
        "type": "Point",
        "coordinates": [
          -122.408954,
          37.780351
        ]
      },
      "properties": {
        "id": 24,
        "name": "The Mission Street Center",
        "address": "1019 Mission Street",
        "net_count": 0,
        "ix_count": 0,
        "type": "facility"
      }
    },
    {
      "type": "Feature",
      "geometry": {
        "type": "Point",
        "coordinates": [
          -121.904828,
          37.333765
        ]
      },
      "properties": {
        "id": 33,
        "name": "SVTIX San Jose",
        "address": "250 Stockton St",
        "net_count": 4,
        "ix_count": 0,
        "type": "facility"
      }
    },
    {
      "type": "Feature",
      "geometry": {
        "type": "Point",
        "coordinates": [
          -0.460224,
          51.482248
        ]
      },
      "properties": {
        "id": 35,
        "name": "Digital Realty London LHR17",
        "address": "Unit 1",
        "net_count": 14,
        "ix_count": 0,
        "type": "facility"
      }
    },
    {
      "type": "Feature",
      "geometry": {
        "type": "Point",
        "coordinates": [
          -74.072237,
          40.778534
        ]
      },
      "properties": {
        "id": 36,
        "name": "Equinix NY2/NY4/NY5/NY6 - New York, Secaucus",
        "address": "800 Secaucus Road",
        "net_count": 120,
        "ix_count": 7,
        "type": "facility"
      }
    },
    {
      "type": "Feature",
      "geometry": {
        "type": "Point",
        "coordinates": [
          -74.003387,
          40.741469
        ]
      },
      "properties": {
        "id": 38,
        "name": "Equinix NY9 - New York, 111 8th Avenue",
        "address": "111 8th Ave",
        "net_count": 89,
        "ix_count": 3,
        "type": "facility"
      }
    },
    {
      "type": "Feature",
      "geometry": {
        "type": "Point",
        "coordinates": [
          -0.010775,
          51.499819
        ]
      },
      "properties": {
        "id": 40,
        "name": "Digital Realty London LHR20",
        "address": "Sovereign House",
        "net_count": 97,
        "ix_count": 6,
        "type": "facility"
      }
    },
    {
      "type": "Feature",
      "geometry": {
        "type": "Point",
        "coordinates": [
          -0.018933,
          51.496902
        ]
      },
      "properties": {
        "id": 43,
        "name": "Digital Realty London LHR19",
        "address": "Cloud House",
        "net_count": 33,
        "ix_count": 4,
        "type": "facility"
      }
    },
    {
      "type": "Feature",
      "geometry": {
        "type": "Point",
        "coordinates": [
          -0.014327,
          51.498842
        ]
      },
      "properties": {
        "id": 45,
        "name": "Equinix LD8 - London, Docklands",
        "address": "6-9 Harbour Exchange Square",
        "net_count": 315,
        "ix_count": 10,
        "type": "facility"
      }
    },
    {
      "type": "Feature",
      "geometry": {
        "type": "Point",
        "coordinates": [
          -0.073777,
          51.520397
        ]
      },
      "properties": {
        "id": 46,
        "name": "Digital Realty London LON1-3",
        "address": "11 Hanbury Street",
        "net_count": 120,
        "ix_count": 6,
        "type": "facility"
      }
    },
    {
      "type": "Feature",
      "geometry": {
        "type": "Point",
        "coordinates": [
          -0.003494,
          51.510985
        ]
      },
      "properties": {
        "id": 47,
        "name": "Global Switch London East",
        "address": "3 Nutmeg Lane",
        "net_count": 34,
        "ix_count": 1,
        "type": "facility"
      }
    },
    {
      "type": "Feature",
      "geometry": {
        "type": "Point",
        "coordinates": [
          -0.010634,
          51.511364
        ]
      },
      "properties": {
        "id": 48,
        "name": "Global Switch London North",
        "address": "240 East India Dock Road",
        "net_count": 36,
        "ix_count": 1,
        "type": "facility"
      }
    },
    {
      "type": "Feature",
      "geometry": {
        "type": "Point",
        "coordinates": [
          -0.087837,
          51.519453
        ]
      },
      "properties": {
        "id": 50,
        "name": "Equinix LD1 - No longer operational",
        "address": "101 Finsbury Pavement",
        "net_count": 5,
        "ix_count": 0,
        "type": "facility"
      }
    },
    {
      "type": "Feature",
      "geometry": {
        "type": "Point",
        "coordinates": [
          2.208747,
          48.782499
        ]
      },
      "properties": {
        "id": 52,
        "name": "SFR Netcenter Paris (Velizy)",
        "address": "6 Rue Nieuport",
        "net_count": 0,
        "ix_count": 0,
        "type": "facility"
      }
    },
    {
      "type": "Feature",
      "geometry": {
        "type": "Point",
        "coordinates": [
          2.38532,
          48.856654
        ]
      },
      "properties": {
        "id": 53,
        "name": "Telehouse - Paris 2 (Voltaire - L\u00e9on Frot)",
        "address": "137 Boulevard Voltaire",
        "net_count": 322,
        "ix_count": 9,
        "type": "facility"
      }
    },
    {
      "type": "Feature",
      "geometry": {
        "type": "Point",
        "coordinates": [
          2.344236,
          48.869869
        ]
      },
      "properties": {
        "id": 54,
        "name": "Telehouse - Paris 1 (Je\u00fbneurs)",
        "address": "38, rue des Je\u00fbneurs",
        "net_count": 24,
        "ix_count": 2,
        "type": "facility"
      }
    },
    {
      "type": "Feature",
      "geometry": {
        "type": "Point",
        "coordinates": [
          2.257694,
          48.903746
        ]
      },
      "properties": {
        "id": 55,
        "name": "SFR Netcenter Paris (Courbevoie)",
        "address": "124 Boulevard de Verdun",
        "net_count": 41,
        "ix_count": 1,
        "type": "facility"
      }
    },
    {
      "type": "Feature",
      "geometry": {
        "type": "Point",
        "coordinates": [
          2.369496,
          48.902082
        ]
      },
      "properties": {
        "id": 56,
        "name": "Digital Realty Paris PAR1",
        "address": "45 Avenue Victor Hugo",
        "net_count": 33,
        "ix_count": 1,
        "type": "facility"
      }
    },
    {
      "type": "Feature",
      "geometry": {
        "type": "Point",
        "coordinates": [
          4.862905,
          45.722882
        ]
      },
      "properties": {
        "id": 57,
        "name": "SFR Netcenter Lyon-Venissieux",
        "address": "8 Rue Georges Marrane",
        "net_count": 76,
        "ix_count": 2,
        "type": "facility"
      }
    },
    {
      "type": "Feature",
      "geometry": {
        "type": "Point",
        "coordinates": [
          8.73463,
          50.11967
        ]
      },
      "properties": {
        "id": 58,
        "name": "Digital Realty Frankfurt FRA1-16",
        "address": "Hanauer Landstrasse 298",
        "net_count": 567,
        "ix_count": 21,
        "type": "facility"
      }
    },
    {
      "type": "Feature",
      "geometry": {
        "type": "Point",
        "coordinates": [
          8.631763,
          50.099697
        ]
      },
      "properties": {
        "id": 59,
        "name": "ITENOS Frankfurt (FRA1)",
        "address": "Kleyerstrasse 90 / Rebstoeckerstrasse 25-31",
        "net_count": 60,
        "ix_count": 4,
        "type": "facility"
      }
    },
    {
      "type": "Feature",
      "geometry": {
        "type": "Point",
        "coordinates": [
          8.632004,
          50.09885
        ]
      },
      "properties": {
        "id": 60,
        "name": "Equinix FR5 - Frankfurt, KleyerStrasse",
        "address": "Kleyerstrasse 90",
        "net_count": 454,
        "ix_count": 29,
        "type": "facility"
      }
    },
    {
      "type": "Feature",
      "geometry": {
        "type": "Point",
        "coordinates": [
          4.951609,
          52.356353
        ]
      },
      "properties": {
        "id": 61,
        "name": "Digital Realty Amsterdam AMS17",
        "address": "Science Park 120",
        "net_count": 130,
        "ix_count": 7,
        "type": "facility"
      }
    },
    {
      "type": "Feature",
      "geometry": {
        "type": "Point",
        "coordinates": [
          4.938009,
          52.303078
        ]
      },
      "properties": {
        "id": 62,
        "name": "Equinix AM7 - Amsterdam, Kuiperberweg",
        "address": "Kuiperbergweg 13",
        "net_count": 218,
        "ix_count": 11,
        "type": "facility"
      }
    },
    {
      "type": "Feature",
      "geometry": {
        "type": "Point",
        "coordinates": [
          4.828711,
          52.343984
        ]
      },
      "properties": {
        "id": 63,
        "name": "Global Switch Amsterdam",
        "address": "Johan Huizingalaan 759",
        "net_count": 93,
        "ix_count": 6,
        "type": "facility"
      }
    },
    {
      "type": "Feature",
      "geometry": {
        "type": "Point",
        "coordinates": [
          4.770855,
          52.28415
        ]
      },
      "properties": {
        "id": 64,
        "name": "Digital Realty Amsterdam AMS3, AMS5-8, AMS10",
        "address": "Cessnalaan 1",
        "net_count": 99,
        "ix_count": 3,
        "type": "facility"
      }
    },
    {
      "type": "Feature",
      "geometry": {
        "type": "Point",
        "coordinates": [
          16.357784,
          48.214151
        ]
      },
      "properties": {
        "id": 66,
        "name": "Vienna University Computer Center (Wien)",
        "address": "Universitaetsstrasse 7",
        "net_count": 26,
        "ix_count": 1,
        "type": "facility"
      }
    },
    {
      "type": "Feature",
      "geometry": {
        "type": "Point",
        "coordinates": [
          16.410613,
          48.269027
        ]
      },
      "properties": {
        "id": 67,
        "name": "Digital Realty Vienna VIE1-2",
        "address": "Louis-Haefliger-Gasse 10",
        "net_count": 174,
        "ix_count": 9,
        "type": "facility"
      }
    },
    {
      "type": "Feature",
      "geometry": {
        "type": "Point",
        "coordinates": [
          4.476941,
          50.870502
        ]
      },
      "properties": {
        "id": 68,
        "name": "Digital Realty Brussels BRU1",
        "address": "Wezenbeekstraat 2",
        "net_count": 97,
        "ix_count": 5,
        "type": "facility"
      }
    },
    {
      "type": "Feature",
      "geometry": {
        "type": "Point",
        "coordinates": [
          -96.81955,
          32.800955
        ]
      },
      "properties": {
        "id": 69,
        "name": "Equinix DA3 - Dallas",
        "address": "1950 N Stemmons Fwy",
        "net_count": 89,
        "ix_count": 6,
        "type": "facility"
      }
    },
    {
      "type": "Feature",
      "geometry": {
        "type": "Point",
        "coordinates": [
          -122.338883,
          47.614347
        ]
      },
      "properties": {
        "id": 71,
        "name": "Digital Realty Seattle SEA10",
        "address": "2001 Sixth Avenue",
        "net_count": 227,
        "ix_count": 5,
        "type": "facility"
      }
    },
    {
      "type": "Feature",
      "geometry": {
        "type": "Point",
        "coordinates": [
          2.259202,
          48.904891
        ]
      },
      "properties": {
        "id": 72,
        "name": "Equinix PA7 - Paris, Energy Park",
        "address": "130-136 Boulevard de Verdun",
        "net_count": 49,
        "ix_count": 2,
        "type": "facility"
      }
    },
    {
      "type": "Feature",
      "geometry": {
        "type": "Point",
        "coordinates": [
          2.369221,
          48.90407
        ]
      },
      "properties": {
        "id": 73,
        "name": "Equinix PA5 - Paris, Victor Hugo",
        "address": "45 Avenue Victor Hugo",
        "net_count": 46,
        "ix_count": 1,
        "type": "facility"
      }
    },
    {
      "type": "Feature",
      "geometry": {
        "type": "Point",
        "coordinates": [
          8.644169,
          50.096869
        ]
      },
      "properties": {
        "id": 74,
        "name": "Equinix FR7 - Frankfurt, Gutleutstrasse",
        "address": "Gutleutstrasse 310",
        "net_count": 119,
        "ix_count": 10,
        "type": "facility"
      }
    },
    {
      "type": "Feature",
      "geometry": {
        "type": "Point",
        "coordinates": [
          2.370417,
          48.906617
        ]
      },
      "properties": {
        "id": 75,
        "name": "Digital Realty Paris PAR2",
        "address": "20 Rue des Gardinoux",
        "net_count": 48,
        "ix_count": 1,
        "type": "facility"
      }
    },
    {
      "type": "Feature",
      "geometry": {
        "type": "Point",
        "coordinates": [
          -2.236869,
          53.463112
        ]
      },
      "properties": {
        "id": 76,
        "name": "Equinix MA1 - Manchester, Williams/Kilburn",
        "address": "Manchester Science Park",
        "net_count": 117,
        "ix_count": 2,
        "type": "facility"
      }
    },
    {
      "type": "Feature",
      "geometry": {
        "type": "Point",
        "coordinates": [
          -2.247614,
          53.464349
        ]
      },
      "properties": {
        "id": 78,
        "name": "Reynolds House, Manchester",
        "address": "Reynolds House",
        "net_count": 33,
        "ix_count": 1,
        "type": "facility"
      }
    },
    {
      "type": "Feature",
      "geometry": {
        "type": "Point",
        "coordinates": [
          -0.011758,
          51.500621
        ]
      },
      "properties": {
        "id": 79,
        "name": "Digital Realty London LHR21",
        "address": "Memaco House, Meridian Gate",
        "net_count": 32,
        "ix_count": 3,
        "type": "facility"
      }
    },
    {
      "type": "Feature",
      "geometry": {
        "type": "Point",
        "coordinates": [
          4.838579,
          52.396814
        ]
      },
      "properties": {
        "id": 80,
        "name": "Equinix AM8 - Amsterdam, Gyroscoopweg",
        "address": "Gyroscoopweg 2E & 2F",
        "net_count": 30,
        "ix_count": 6,
        "type": "facility"
      }
    },
    {
      "type": "Feature",
      "geometry": {
        "type": "Point",
        "coordinates": [
          8.557273,
          47.432702
        ]
      },
      "properties": {
        "id": 81,
        "name": "Digital Realty Zurich ZUR1",
        "address": "S\u00e4gereistrasse 35",
        "net_count": 126,
        "ix_count": 4,
        "type": "facility"
      }
    },
    {
      "type": "Feature",
      "geometry": {
        "type": "Point",
        "coordinates": [
          8.519008,
          47.387702
        ]
      },
      "properties": {
        "id": 82,
        "name": "Equinix ZH1 - No longer operational",
        "address": "Hardstrasse 235",
        "net_count": 9,
        "ix_count": 1,
        "type": "facility"
      }
    },
    {
      "type": "Feature",
      "geometry": {
        "type": "Point",
        "coordinates": [
          8.520255,
          47.387749
        ]
      },
      "properties": {
        "id": 83,
        "name": "Equinix ZH2 - Zurich",
        "address": "Josefstrasse 225",
        "net_count": 47,
        "ix_count": 6,
        "type": "facility"
      }
    },
    {
      "type": "Feature",
      "geometry": {
        "type": "Point",
        "coordinates": [
          -121.889302,
          37.333885
        ]
      },
      "properties": {
        "id": 84,
        "name": "KDWEB San Jose",
        "address": "50 W San Fernando",
        "net_count": 0,
        "ix_count": 0,
        "type": "facility"
      }
    },
    {
      "type": "Feature",
      "geometry": {
        "type": "Point",
        "coordinates": [
          -121.988591,
          37.376348
        ]
      },
      "properties": {
        "id": 85,
        "name": "Equinix SV17 - Silicon Valley, Santa Clara",
        "address": "3030 Corvin Dr",
        "net_count": 4,
        "ix_count": 1,
        "type": "facility"
      }
    },
    {
      "type": "Feature",
      "geometry": {
        "type": "Point",
        "coordinates": [
          -122.338864,
          47.614358
        ]
      },
      "properties": {
        "id": 86,
        "name": "Equinix SE2/SE3 - Seattle",
        "address": "2001 Sixth Avenue",
        "net_count": 105,
        "ix_count": 5,
        "type": "facility"
      }
    },
    {
      "type": "Feature",
      "geometry": {
        "type": "Point",
        "coordinates": [
          -77.219692,
          38.908422
        ]
      },
      "properties": {
        "id": 88,
        "name": "Equinix DC7 - Ashburn, Vienna",
        "address": "7990 Science Applications Ct",
        "net_count": 7,
        "ix_count": 2,
        "type": "facility"
      }
    },
    {
      "type": "Feature",
      "geometry": {
        "type": "Point",
        "coordinates": [
          -0.183762,
          51.799899
        ]
      },
      "properties": {
        "id": 91,
        "name": "COLT DC London",
        "address": "Welwyn Garden City, 20 Black Fan Road",
        "net_count": 7,
        "ix_count": 0,
        "type": "facility"
      }
    },
    {
      "type": "Feature",
      "geometry": {
        "type": "Point",
        "coordinates": [
          9.17865,
          45.49538
        ]
      },
      "properties": {
        "id": 97,
        "name": "AtlasEdge DC Milan",
        "address": "Via Lancetti 23",
        "net_count": 3,
        "ix_count": 0,
        "type": "facility"
      }
    },
    {
      "type": "Feature",
      "geometry": {
        "type": "Point",
        "coordinates": [
          7.241053,
          47.130774
        ]
      },
      "properties": {
        "id": 101,
        "name": "LAN Services AG - Communication Center cc.ch",
        "address": "Chipotstrasse 15",
        "net_count": 0,
        "ix_count": 0,
        "type": "facility"
      }
    },
    {
      "type": "Feature",
      "geometry": {
        "type": "Point",
        "coordinates": [
          -118.259585,
          34.048897
        ]
      },
      "properties": {
        "id": 102,
        "name": "Equinix LA2 - Los Angeles",
        "address": "818 W 7th St",
        "net_count": 16,
        "ix_count": 5,
        "type": "facility"
      }
    },
    {
      "type": "Feature",
      "geometry": {
        "type": "Point",
        "coordinates": [
          4.952501,
          52.356671
        ]
      },
      "properties": {
        "id": 104,
        "name": "Digital Realty Amsterdam AMS9",
        "address": "Science Park 121",
        "net_count": 142,
        "ix_count": 10,
        "type": "facility"
      }
    },
    {
      "type": "Feature",
      "geometry": {
        "type": "Point",
        "coordinates": [
          6.86722,
          51.18827
        ]
      },
      "properties": {
        "id": 106,
        "name": "Digital Realty Dusseldorf DUS1-2",
        "address": "In der Steele 29",
        "net_count": 133,
        "ix_count": 5,
        "type": "facility"
      }
    },
    {
      "type": "Feature",
      "geometry": {
        "type": "Point",
        "coordinates": [
          8.630057,
          50.096962
        ]
      },
      "properties": {
        "id": 108,
        "name": "Telehouse - Frankfurt",
        "address": "Kleyerstrasse 75-87",
        "net_count": 76,
        "ix_count": 4,
        "type": "facility"
      }
    },
    {
      "type": "Feature",
      "geometry": {
        "type": "Point",
        "coordinates": [
          11.526173,
          48.139859
        ]
      },
      "properties": {
        "id": 109,
        "name": "EdgeConneX Munich (EDCMUC01)",
        "address": "Landsberger Str. 155",
        "net_count": 36,
        "ix_count": 2,
        "type": "facility"
      }
    },
    {
      "type": "Feature",
      "geometry": {
        "type": "Point",
        "coordinates": [
          5.624974,
          52.030762
        ]
      },
      "properties": {
        "id": 110,
        "name": "BIT Datacenter Ede I",
        "address": "Kelvinstraat 63",
        "net_count": 8,
        "ix_count": 0,
        "type": "facility"
      }
    },
    {
      "type": "Feature",
      "geometry": {
        "type": "Point",
        "coordinates": [
          8.636254,
          50.103483
        ]
      },
      "properties": {
        "id": 111,
        "name": "ColoCenter Frankfurt",
        "address": "Schwalbacher Strasse 60",
        "net_count": 0,
        "ix_count": 0,
        "type": "facility"
      }
    },
    {
      "type": "Feature",
      "geometry": {
        "type": "Point",
        "coordinates": [
          2.21513,
          48.887694
        ]
      },
      "properties": {
        "id": 112,
        "name": "Level(3) Paris (Le Capitole)",
        "address": "55 Avenue des Champs Pierreux",
        "net_count": 12,
        "ix_count": 0,
        "type": "facility"
      }
    },
    {
      "type": "Feature",
      "geometry": {
        "type": "Point",
        "coordinates": [
          7.038047,
          43.628052
        ]
      },
      "properties": {
        "id": 117,
        "name": "TAS Sophia",
        "address": "World Trade Center 1 - B7",
        "net_count": 2,
        "ix_count": 0,
        "type": "facility"
      }
    },
    {
      "type": "Feature",
      "geometry": {
        "type": "Point",
        "coordinates": [
          6.84964,
          52.236979
        ]
      },
      "properties": {
        "id": 118,
        "name": "Equinix EN1 - Enschede",
        "address": "Auke Vleerstraat 1",
        "net_count": 19,
        "ix_count": 2,
        "type": "facility"
      }
    },
    {
      "type": "Feature",
      "geometry": {
        "type": "Point",
        "coordinates": [
          8.623156,
          50.081709
        ]
      },
      "properties": {
        "id": 119,
        "name": "Digital Realty Frankfurt FRA28",
        "address": "Lyoner Strasse 28",
        "net_count": 23,
        "ix_count": 3,
        "type": "facility"
      }
    },
    {
      "type": "Feature",
      "geometry": {
        "type": "Point",
        "coordinates": [
          -74.004561,
          40.72
        ]
      },
      "properties": {
        "id": 120,
        "name": "Digital Realty NYC (32 AofA)",
        "address": "32 6th Ave (Avenue of the Americas)",
        "net_count": 34,
        "ix_count": 3,
        "type": "facility"
      }
    },
    {
      "type": "Feature",
      "geometry": {
        "type": "Point",
        "coordinates": [
          -3.660963,
          40.466022
        ]
      },
      "properties": {
        "id": 121,
        "name": "Espanix Datacenter",
        "address": "Mesena 80",
        "net_count": 36,
        "ix_count": 5,
        "type": "facility"
      }
    },
    {
      "type": "Feature",
      "geometry": {
        "type": "Point",
        "coordinates": [
          2.137457,
          41.351557
        ]
      },
      "properties": {
        "id": 122,
        "name": "Equinix BA1 - Barcelona",
        "address": "Carrer de l'Acer 30-32",
        "net_count": 64,
        "ix_count": 3,
        "type": "facility"
      }
    },
    {
      "type": "Feature",
      "geometry": {
        "type": "Point",
        "coordinates": [
          -84.39153,
          33.755456
        ]
      },
      "properties": {
        "id": 125,
        "name": "Digital Realty ATL (56 Marietta)",
        "address": "56 Marietta Street",
        "net_count": 170,
        "ix_count": 4,
        "type": "facility"
      }
    },
    {
      "type": "Feature",
      "geometry": {
        "type": "Point",
        "coordinates": [
          -9.123454,
          38.787919
        ]
      },
      "properties": {
        "id": 126,
        "name": "Equinix LS1 - Lisbon",
        "address": "Avenida Severiano Falc\u00e3o 14",
        "net_count": 71,
        "ix_count": 4,
        "type": "facility"
      }
    },
    {
      "type": "Feature",
      "geometry": {
        "type": "Point",
        "coordinates": [
          -3.648584,
          40.536855
        ]
      },
      "properties": {
        "id": 127,
        "name": "Equinix MD2 - Madrid",
        "address": "Calle Valgrande 6",
        "net_count": 73,
        "ix_count": 7,
        "type": "facility"
      }
    },
    {
      "type": "Feature",
      "geometry": {
        "type": "Point",
        "coordinates": [
          7.582093,
          47.546259
        ]
      },
      "properties": {
        "id": 129,
        "name": "IWB Basel",
        "address": "Dachsfelderstrasse 17",
        "net_count": 21,
        "ix_count": 1,
        "type": "facility"
      }
    },
    {
      "type": "Feature",
      "geometry": {
        "type": "Point",
        "coordinates": [
          -3.621211,
          40.439323
        ]
      },
      "properties": {
        "id": 130,
        "name": "Digital Realty Madrid MAD1-2",
        "address": "C/ Albasanz 71",
        "net_count": 215,
        "ix_count": 7,
        "type": "facility"
      }
    },
    {
      "type": "Feature",
      "geometry": {
        "type": "Point",
        "coordinates": [
          151.188025,
          -33.921868
        ]
      },
      "properties": {
        "id": 131,
        "name": "Equinix SY1/SY2 - Sydney",
        "address": "639 Gardeners Road",
        "net_count": 186,
        "ix_count": 5,
        "type": "facility"
      }
    },
    {
      "type": "Feature",
      "geometry": {
        "type": "Point",
        "coordinates": [
          8.678206,
          50.116391
        ]
      },
      "properties": {
        "id": 133,
        "name": "Equinix FR1 - No longer operational",
        "address": "Taubenstrasse 7-9",
        "net_count": 16,
        "ix_count": 0,
        "type": "facility"
      }
    },
    {
      "type": "Feature",
      "geometry": {
        "type": "Point",
        "coordinates": [
          4.412116,
          50.857721
        ]
      },
      "properties": {
        "id": 135,
        "name": "Level(3) Brussels",
        "address": "Leon Grosjeanlaan 2",
        "net_count": 21,
        "ix_count": 2,
        "type": "facility"
      }
    },
    {
      "type": "Feature",
      "geometry": {
        "type": "Point",
        "coordinates": [
          2.111883,
          41.387314
        ]
      },
      "properties": {
        "id": 138,
        "name": "CSUC Campus Nord",
        "address": "Gran Capita, 2 - 4 (Edifici Nexus)",
        "net_count": 8,
        "ix_count": 1,
        "type": "facility"
      }
    },
    {
      "type": "Feature",
      "geometry": {
        "type": "Point",
        "coordinates": [
          6.144251,
          46.203607
        ]
      },
      "properties": {
        "id": 139,
        "name": "Equinix GV1 - Geneva, City",
        "address": "Rue de la Conf\u00e9d\u00e9ration 6",
        "net_count": 37,
        "ix_count": 2,
        "type": "facility"
      }
    },
    {
      "type": "Feature",
      "geometry": {
        "type": "Point",
        "coordinates": [
          139.764809,
          35.686406
        ]
      },
      "properties": {
        "id": 142,
        "name": "Telehouse \u2013 TOKYO Otemachi (KDDI Otemachi)",
        "address": "Otemachi Building",
        "net_count": 42,
        "ix_count": 2,
        "type": "facility"
      }
    },
    {
      "type": "Feature",
      "geometry": {
        "type": "Point",
        "coordinates": [
          127.051167,
          37.488139
        ]
      },
      "properties": {
        "id": 143,
        "name": "KINX Dogok",
        "address": "5F, Daelim Acrotel, 13, Eonju-ro 30-gil, Gangnam-gu",
        "net_count": 43,
        "ix_count": 3,
        "type": "facility"
      }
    },
    {
      "type": "Feature",
      "geometry": {
        "type": "Point",
        "coordinates": [
          -77.238951,
          38.931419
        ]
      },
      "properties": {
        "id": 144,
        "name": "Equinix DC8 - Ashburn, Vienna",
        "address": "8502A Tyco Rd",
        "net_count": 5,
        "ix_count": 2,
        "type": "facility"
      }
    },
    {
      "type": "Feature",
      "geometry": {
        "type": "Point",
        "coordinates": [
          -75.161377,
          39.959668
        ]
      },
      "properties": {
        "id": 146,
        "name": "Equinix PH1 - Philadelphia",
        "address": "401 North Broad Street",
        "net_count": 18,
        "ix_count": 1,
        "type": "facility"
      }
    },
    {
      "type": "Feature",
      "geometry": {
        "type": "Point",
        "coordinates": [
          -121.910133,
          37.338431
        ]
      },
      "properties": {
        "id": 147,
        "name": "Evocative San Jose (SV7)",
        "address": "534 Stockton Avenue",
        "net_count": 7,
        "ix_count": 0,
        "type": "facility"
      }
    },
    {
      "type": "Feature",
      "geometry": {
        "type": "Point",
        "coordinates": [
          12.377482,
          55.728092
        ]
      },
      "properties": {
        "id": 148,
        "name": "Digital Realty Copenhagen CPH1-3",
        "address": "Industriparken 20A",
        "net_count": 88,
        "ix_count": 8,
        "type": "facility"
      }
    },
    {
      "type": "Feature",
      "geometry": {
        "type": "Point",
        "coordinates": [
          -80.194926,
          25.848356
        ]
      },
      "properties": {
        "id": 149,
        "name": "iM Critical Miami",
        "address": "100 NE 80th. Terrace",
        "net_count": 7,
        "ix_count": 0,
        "type": "facility"
      }
    },
    {
      "type": "Feature",
      "geometry": {
        "type": "Point",
        "coordinates": [
          37.528861,
          55.652639
        ]
      },
      "properties": {
        "id": 152,
        "name": "Moscow M9",
        "address": "7, Butlerova street",
        "net_count": 253,
        "ix_count": 14,
        "type": "facility"
      }
    },
    {
      "type": "Feature",
      "geometry": {
        "type": "Point",
        "coordinates": [
          6.86728,
          51.18819
        ]
      },
      "properties": {
        "id": 153,
        "name": "Level(3) Duesseldorf",
        "address": "In Der Steele 37A",
        "net_count": 14,
        "ix_count": 2,
        "type": "facility"
      }
    },
    {
      "type": "Feature",
      "geometry": {
        "type": "Point",
        "coordinates": [
          9.103887,
          45.476177
        ]
      },
      "properties": {
        "id": 154,
        "name": "Telnet Caldera Milan",
        "address": "Via Caldera 21 - Easy Point (Building F)",
        "net_count": 8,
        "ix_count": 2,
        "type": "facility"
      }
    },
    {
      "type": "Feature",
      "geometry": {
        "type": "Point",
        "coordinates": [
          13.369905,
          52.465779
        ]
      },
      "properties": {
        "id": 155,
        "name": "Speedbone Berlin",
        "address": "Alboinstr. 36 - 42",
        "net_count": 45,
        "ix_count": 6,
        "type": "facility"
      }
    },
    {
      "type": "Feature",
      "geometry": {
        "type": "Point",
        "coordinates": [
          17.955657,
          59.362574
        ]
      },
      "properties": {
        "id": 156,
        "name": "Equinix SK1 - Stockholm, Bromma",
        "address": "Marieh\u00e4llsv\u00e4gen 36",
        "net_count": 114,
        "ix_count": 13,
        "type": "facility"
      }
    },
    {
      "type": "Feature",
      "geometry": {
        "type": "Point",
        "coordinates": [
          7.478187,
          46.964845
        ]
      },
      "properties": {
        "id": 157,
        "name": "colobern.ch Bern",
        "address": "W\u00f6lflistrasse 1D",
        "net_count": 15,
        "ix_count": 1,
        "type": "facility"
      }
    },
    {
      "type": "Feature",
      "geometry": {
        "type": "Point",
        "coordinates": [
          12.301459,
          55.662
        ]
      },
      "properties": {
        "id": 158,
        "name": "GlobalConnect Taastrup 1 (CPH1)",
        "address": "H\u00f8rsk\u00e6tten 3-5 and 12",
        "net_count": 57,
        "ix_count": 7,
        "type": "facility"
      }
    },
    {
      "type": "Feature",
      "geometry": {
        "type": "Point",
        "coordinates": [
          153.027805,
          -27.465681
        ]
      },
      "properties": {
        "id": 159,
        "name": "PIPE Networks Brisbane",
        "address": "Level 9,",
        "net_count": 8,
        "ix_count": 1,
        "type": "facility"
      }
    },
    {
      "type": "Feature",
      "geometry": {
        "type": "Point",
        "coordinates": [
          151.207641,
          -33.872665
        ]
      },
      "properties": {
        "id": 160,
        "name": "PIPE Networks Sydney",
        "address": "Level 13,",
        "net_count": 3,
        "ix_count": 1,
        "type": "facility"
      }
    },
    {
      "type": "Feature",
      "geometry": {
        "type": "Point",
        "coordinates": [
          144.956726,
          -37.819171
        ]
      },
      "properties": {
        "id": 161,
        "name": "PIPE Networks Melbourne",
        "address": "Level 3,",
        "net_count": 2,
        "ix_count": 1,
        "type": "facility"
      }
    },
    {
      "type": "Feature",
      "geometry": {
        "type": "Point",
        "coordinates": [
          138.594121,
          -34.927233
        ]
      },
      "properties": {
        "id": 162,
        "name": "PIPE Networks Adelaide",
        "address": "Level 2,",
        "net_count": 4,
        "ix_count": 1,
        "type": "facility"
      }
    },
    {
      "type": "Feature",
      "geometry": {
        "type": "Point",
        "coordinates": [
          147.328921,
          -42.881849
        ]
      },
      "properties": {
        "id": 163,
        "name": "PIPE Networks Hobart",
        "address": "Level 2,",
        "net_count": 2,
        "ix_count": 1,
        "type": "facility"
      }
    },
    {
      "type": "Feature",
      "geometry": {
        "type": "Point",
        "coordinates": [
          -6.41897,
          53.296306
        ]
      },
      "properties": {
        "id": 164,
        "name": "Equinix DB1 - Dublin, CityWest",
        "address": "Unit 4027, Kingswood Road",
        "net_count": 43,
        "ix_count": 3,
        "type": "facility"
      }
    },
    {
      "type": "Feature",
      "geometry": {
        "type": "Point",
        "coordinates": [
          -46.814577,
          -23.497589
        ]
      },
      "properties": {
        "id": 165,
        "name": "Equinix SP4 - S\u00e3o Paulo",
        "address": "Av. Ceci, 1900 - Res. Tambore",
        "net_count": 528,
        "ix_count": 5,
        "type": "facility"
      }
    },
    {
      "type": "Feature",
      "geometry": {
        "type": "Point",
        "coordinates": [
          -3.574684,
          40.447968
        ]
      },
      "properties": {
        "id": 166,
        "name": "Verizon Madrid",
        "address": "C/ Yecora 4",
        "net_count": 4,
        "ix_count": 0,
        "type": "facility"
      }
    },
    {
      "type": "Feature",
      "geometry": {
        "type": "Point",
        "coordinates": [
          -123.111935,
          49.284697
        ]
      },
      "properties": {
        "id": 167,
        "name": "Harbour Centre Vancouver",
        "address": "555 West Hastings St.",
        "net_count": 62,
        "ix_count": 5,
        "type": "facility"
      }
    },
    {
      "type": "Feature",
      "geometry": {
        "type": "Point",
        "coordinates": [
          139.749055,
          35.576366
        ]
      },
      "properties": {
        "id": 168,
        "name": "Equinix TY1 - Tokyo",
        "address": "TRC-C Building B Block, 4F 5-1",
        "net_count": 27,
        "ix_count": 3,
        "type": "facility"
      }
    },
    {
      "type": "Feature",
      "geometry": {
        "type": "Point",
        "coordinates": [
          114.11932,
          22.365581
        ]
      },
      "properties": {
        "id": 170,
        "name": "Equinix HK1 - Hong Kong",
        "address": "17/F Global Gateway (Hong Kong)",
        "net_count": 182,
        "ix_count": 5,
        "type": "facility"
      }
    },
    {
      "type": "Feature",
      "geometry": {
        "type": "Point",
        "coordinates": [
          -112.072042,
          33.452003
        ]
      },
      "properties": {
        "id": 171,
        "name": "Digital Realty PHX10 (120 E Van Buren)",
        "address": "120 East Van Buren Street",
        "net_count": 26,
        "ix_count": 3,
        "type": "facility"
      }
    },
    {
      "type": "Feature",
      "geometry": {
        "type": "Point",
        "coordinates": [
          -121.98778,
          37.373412
        ]
      },
      "properties": {
        "id": 176,
        "name": "Level(3) Sunnyvale",
        "address": "1380 Kifer Rd.",
        "net_count": 8,
        "ix_count": 1,
        "type": "facility"
      }
    },
    {
      "type": "Feature",
      "geometry": {
        "type": "Point",
        "coordinates": [
          -6.365538,
          53.334251
        ]
      },
      "properties": {
        "id": 177,
        "name": "Digital Realty Dublin DUB1-2",
        "address": "Unit 35 Lavery Avenue",
        "net_count": 54,
        "ix_count": 3,
        "type": "facility"
      }
    },
    {
      "type": "Feature",
      "geometry": {
        "type": "Point",
        "coordinates": [
          -6.439957,
          53.318647
        ]
      },
      "properties": {
        "id": 178,
        "name": "Equinix DB2 - Dublin, Kilcarbery",
        "address": "Kilcarbery Business Park",
        "net_count": 48,
        "ix_count": 3,
        "type": "facility"
      }
    },
    {
      "type": "Feature",
      "geometry": {
        "type": "Point",
        "coordinates": [
          -3.671891,
          40.513497
        ]
      },
      "properties": {
        "id": 179,
        "name": "Equinix MD1 - Madrid",
        "address": "Calle Isabel Colbrand 6-8",
        "net_count": 15,
        "ix_count": 1,
        "type": "facility"
      }
    },
    {
      "type": "Feature",
      "geometry": {
        "type": "Point",
        "coordinates": [
          -6.366707,
          53.412081
        ]
      },
      "properties": {
        "id": 180,
        "name": "Digital Realty Dublin DUB10",
        "address": "Unit 9 Blanchardstown Corporate Park",
        "net_count": 9,
        "ix_count": 0,
        "type": "facility"
      }
    },
    {
      "type": "Feature",
      "geometry": {
        "type": "Point",
        "coordinates": [
          2.296095,
          48.899823
        ]
      },
      "properties": {
        "id": 181,
        "name": "Global Switch Paris",
        "address": "7-9 rue petit",
        "net_count": 30,
        "ix_count": 0,
        "type": "facility"
      }
    },
    {
      "type": "Feature",
      "geometry": {
        "type": "Point",
        "coordinates": [
          -87.629928,
          41.874302
        ]
      },
      "properties": {
        "id": 184,
        "name": "Printer's Square Chicago (600 S Federal)",
        "address": "600 S Federal",
        "net_count": 3,
        "ix_count": 0,
        "type": "facility"
      }
    },
    {
      "type": "Feature",
      "geometry": {
        "type": "Point",
        "coordinates": [
          11.17706,
          49.38991
        ]
      },
      "properties": {
        "id": 185,
        "name": "NorthC N\u00fcrnberg",
        "address": "Am Tower 5",
        "net_count": 15,
        "ix_count": 2,
        "type": "facility"
      }
    },
    {
      "type": "Feature",
      "geometry": {
        "type": "Point",
        "coordinates": [
          -86.172275,
          39.75988
        ]
      },
      "properties": {
        "id": 186,
        "name": "Netrality - Indy Telcom Center - 733 W. Henry",
        "address": "733 W. Henry St",
        "net_count": 39,
        "ix_count": 2,
        "type": "facility"
      }
    },
    {
      "type": "Feature",
      "geometry": {
        "type": "Point",
        "coordinates": [
          3.734616,
          51.063866
        ]
      },
      "properties": {
        "id": 187,
        "name": "Versatel Gent (Handelsdok Center)",
        "address": "Stapelplein 70B",
        "net_count": 0,
        "ix_count": 0,
        "type": "facility"
      }
    },
    {
      "type": "Feature",
      "geometry": {
        "type": "Point",
        "coordinates": [
          -74.008333,
          40.717664
        ]
      },
      "properties": {
        "id": 188,
        "name": "FiberNet Telecom Group - 60 Hudson St",
        "address": "60 Hudson St",
        "net_count": 5,
        "ix_count": 1,
        "type": "facility"
      }
    },
    {
      "type": "Feature",
      "geometry": {
        "type": "Point",
        "coordinates": [
          -74.003203,
          40.741355
        ]
      },
      "properties": {
        "id": 189,
        "name": "FiberNet Telecom Group New York (111 Eighth Ave)",
        "address": "111 Eighth Ave",
        "net_count": 1,
        "ix_count": 1,
        "type": "facility"
      }
    },
    {
      "type": "Feature",
      "geometry": {
        "type": "Point",
        "coordinates": [
          4.402951,
          51.264294
        ]
      },
      "properties": {
        "id": 190,
        "name": "LCL Antwerp",
        "address": "Noorderlaan 133",
        "net_count": 13,
        "ix_count": 3,
        "type": "facility"
      }
    },
    {
      "type": "Feature",
      "geometry": {
        "type": "Point",
        "coordinates": [
          4.41733,
          51.262686
        ]
      },
      "properties": {
        "id": 191,
        "name": "Versatel Antwerp",
        "address": "Noorderlaan 113",
        "net_count": 0,
        "ix_count": 0,
        "type": "facility"
      }
    },
    {
      "type": "Feature",
      "geometry": {
        "type": "Point",
        "coordinates": [
          11.662742,
          48.135973
        ]
      },
      "properties": {
        "id": 192,
        "name": "Level(3) Munich",
        "address": "Wamslerstrasse 8",
        "net_count": 20,
        "ix_count": 1,
        "type": "facility"
      }
    },
    {
      "type": "Feature",
      "geometry": {
        "type": "Point",
        "coordinates": [
          4.455068,
          50.887474
        ]
      },
      "properties": {
        "id": 193,
        "name": "LCL Brussels (Diegem)",
        "address": "Kouterveldstraat 13",
        "net_count": 43,
        "ix_count": 4,
        "type": "facility"
      }
    },
    {
      "type": "Feature",
      "geometry": {
        "type": "Point",
        "coordinates": [
          151.182583,
          -33.883255
        ]
      },
      "properties": {
        "id": 195,
        "name": "AAPT Glebe",
        "address": "30 Ross Street",
        "net_count": 1,
        "ix_count": 1,
        "type": "facility"
      }
    },
    {
      "type": "Feature",
      "geometry": {
        "type": "Point",
        "coordinates": [
          151.197691,
          -33.875599
        ]
      },
      "properties": {
        "id": 196,
        "name": "Global Switch Sydney",
        "address": "400 Harris Street",
        "net_count": 107,
        "ix_count": 4,
        "type": "facility"
      }
    },
    {
      "type": "Feature",
      "geometry": {
        "type": "Point",
        "coordinates": [
          151.203797,
          -33.881547
        ]
      },
      "properties": {
        "id": 197,
        "name": "AAPT Haymarket",
        "address": "187 Thomas Street",
        "net_count": 0,
        "ix_count": 1,
        "type": "facility"
      }
    },
    {
      "type": "Feature",
      "geometry": {
        "type": "Point",
        "coordinates": [
          153.030416,
          -27.467146
        ]
      },
      "properties": {
        "id": 198,
        "name": "AAPT Brisbane",
        "address": "Level 8, 123 Eagle Street",
        "net_count": 1,
        "ix_count": 1,
        "type": "facility"
      }
    },
    {
      "type": "Feature",
      "geometry": {
        "type": "Point",
        "coordinates": [
          153.03099,
          -27.459649
        ]
      },
      "properties": {
        "id": 199,
        "name": "AAPT Fortitude Valley",
        "address": "Level 1, 100 Wickham Street",
        "net_count": 2,
        "ix_count": 1,
        "type": "facility"
      }
    },
    {
      "type": "Feature",
      "geometry": {
        "type": "Point",
        "coordinates": [
          144.956817,
          -37.817684
        ]
      },
      "properties": {
        "id": 200,
        "name": "AAPT Melbourne",
        "address": "Level 5, 530 Collins Street",
        "net_count": 1,
        "ix_count": 1,
        "type": "facility"
      }
    },
    {
      "type": "Feature",
      "geometry": {
        "type": "Point",
        "coordinates": [
          138.6013,
          -34.926075
        ]
      },
      "properties": {
        "id": 201,
        "name": "AAPT Adelaide",
        "address": "Level 1, 45 Pirie Street",
        "net_count": 1,
        "ix_count": 1,
        "type": "facility"
      }
    },
    {
      "type": "Feature",
      "geometry": {
        "type": "Point",
        "coordinates": [
          11.063356,
          49.453955
        ]
      },
      "properties": {
        "id": 203,
        "name": "Deutschherrnkarree",
        "address": "Deutschherrnstra\u00dfe 15-19",
        "net_count": 16,
        "ix_count": 2,
        "type": "facility"
      }
    },
    {
      "type": "Feature",
      "geometry": {
        "type": "Point",
        "coordinates": [
          18.045546,
          59.31535
        ]
      },
      "properties": {
        "id": 206,
        "name": "STOKAB KN5, S\u00f6dermalm",
        "address": "Zinkens V\u00e4g 47",
        "net_count": 18,
        "ix_count": 0,
        "type": "facility"
      }
    },
    {
      "type": "Feature",
      "geometry": {
        "type": "Point",
        "coordinates": [
          18.089786,
          59.298407
        ]
      },
      "properties": {
        "id": 207,
        "name": "STOKAB KN6, Hammarby",
        "address": "Kalmgatan 4",
        "net_count": 10,
        "ix_count": 0,
        "type": "facility"
      }
    },
    {
      "type": "Feature",
      "geometry": {
        "type": "Point",
        "coordinates": [
          17.916696,
          59.422226
        ]
      },
      "properties": {
        "id": 208,
        "name": "Digital Realty Stockholm STO1-6",
        "address": "Esbogatan 11",
        "net_count": 114,
        "ix_count": 12,
        "type": "facility"
      }
    },
    {
      "type": "Feature",
      "geometry": {
        "type": "Point",
        "coordinates": [
          -74.025031,
          40.761825
        ]
      },
      "properties": {
        "id": 209,
        "name": "Level(3) Weehawken",
        "address": "300 JFK Boulevard East",
        "net_count": 2,
        "ix_count": 0,
        "type": "facility"
      }
    },
    {
      "type": "Feature",
      "geometry": {
        "type": "Point",
        "coordinates": [
          103.772471,
          1.297541
        ]
      },
      "properties": {
        "id": 211,
        "name": "Singapore Open Exchange (SOX)",
        "address": "National University of Singapore / Computer Centre",
        "net_count": 2,
        "ix_count": 1,
        "type": "facility"
      }
    },
    {
      "type": "Feature",
      "geometry": {
        "type": "Point",
        "coordinates": [
          4.414322,
          51.930359
        ]
      },
      "properties": {
        "id": 212,
        "name": "Spaanse Kubus Rotterdam",
        "address": "Vlaardingweg 62 - 415",
        "net_count": 16,
        "ix_count": 2,
        "type": "facility"
      }
    },
    {
      "type": "Feature",
      "geometry": {
        "type": "Point",
        "coordinates": [
          5.845593,
          50.995925
        ]
      },
      "properties": {
        "id": 213,
        "name": "Unilogic Networks Datacenter Sittard",
        "address": "Bergerweg 120",
        "net_count": 2,
        "ix_count": 1,
        "type": "facility"
      }
    },
    {
      "type": "Feature",
      "geometry": {
        "type": "Point",
        "coordinates": [
          14.482978,
          50.060164
        ]
      },
      "properties": {
        "id": 214,
        "name": "CE Colo Prague",
        "address": "Nad Elektrarnou 1428/47",
        "net_count": 140,
        "ix_count": 7,
        "type": "facility"
      }
    },
    {
      "type": "Feature",
      "geometry": {
        "type": "Point",
        "coordinates": [
          14.451122,
          50.08103
        ]
      },
      "properties": {
        "id": 215,
        "name": "DC Tower Zizkov CRa",
        "address": "Mahlerovy sady 1",
        "net_count": 14,
        "ix_count": 2,
        "type": "facility"
      }
    },
    {
      "type": "Feature",
      "geometry": {
        "type": "Point",
        "coordinates": [
          14.475889,
          50.078094
        ]
      },
      "properties": {
        "id": 216,
        "name": "GTS Telehouse Prague",
        "address": "Vinohradsk\u00e1 190",
        "net_count": 20,
        "ix_count": 2,
        "type": "facility"
      }
    },
    {
      "type": "Feature",
      "geometry": {
        "type": "Point",
        "coordinates": [
          14.428607,
          50.062152
        ]
      },
      "properties": {
        "id": 217,
        "name": "Pragonet Telehouse Prague",
        "address": "5. kv\u011btna 65",
        "net_count": 1,
        "ix_count": 0,
        "type": "facility"
      }
    },
    {
      "type": "Feature",
      "geometry": {
        "type": "Point",
        "coordinates": [
          6.86608,
          51.188
        ]
      },
      "properties": {
        "id": 218,
        "name": "Arelion Dusseldorf DDF/B",
        "address": "In der Steele 43",
        "net_count": 12,
        "ix_count": 2,
        "type": "facility"
      }
    },
    {
      "type": "Feature",
      "geometry": {
        "type": "Point",
        "coordinates": [
          -71.060266,
          42.354692
        ]
      },
      "properties": {
        "id": 219,
        "name": "Markley Group One Summer Street Boston",
        "address": "1 Summer Street",
        "net_count": 79,
        "ix_count": 1,
        "type": "facility"
      }
    },
    {
      "type": "Feature",
      "geometry": {
        "type": "Point",
        "coordinates": [
          6.163425,
          49.637537
        ]
      },
      "properties": {
        "id": 220,
        "name": "BCE Colocation Luxembourg",
        "address": "43, Boulevard Pierre Frieden",
        "net_count": 13,
        "ix_count": 1,
        "type": "facility"
      }
    },
    {
      "type": "Feature",
      "geometry": {
        "type": "Point",
        "coordinates": [
          12.377342,
          55.661921
        ]
      },
      "properties": {
        "id": 222,
        "name": "Telia Telehouse Copenhagen",
        "address": "Sydvestvej 100",
        "net_count": 19,
        "ix_count": 0,
        "type": "facility"
      }
    },
    {
      "type": "Feature",
      "geometry": {
        "type": "Point",
        "coordinates": [
          114.246512,
          22.266098
        ]
      },
      "properties": {
        "id": 225,
        "name": "MEGA-i (iAdvantage Hong Kong)",
        "address": "399 Chai Wan Road",
        "net_count": 255,
        "ix_count": 4,
        "type": "facility"
      }
    },
    {
      "type": "Feature",
      "geometry": {
        "type": "Point",
        "coordinates": [
          5.373865,
          43.310818
        ]
      },
      "properties": {
        "id": 226,
        "name": "Digital Realty Marseille MRS1-3",
        "address": "MRS1: 40 Avenue Roger Salengro",
        "net_count": 192,
        "ix_count": 9,
        "type": "facility"
      }
    },
    {
      "type": "Feature",
      "geometry": {
        "type": "Point",
        "coordinates": [
          2.507095,
          48.983691
        ]
      },
      "properties": {
        "id": 229,
        "name": "Equinix PA1 - Paris, Roissy",
        "address": "Rue de la Belle Etoile, 167",
        "net_count": 9,
        "ix_count": 0,
        "type": "facility"
      }
    },
    {
      "type": "Feature",
      "geometry": {
        "type": "Point",
        "coordinates": [
          3.090551,
          50.63768
        ]
      },
      "properties": {
        "id": 230,
        "name": "Cogent Lille",
        "address": "72 rue Jenner",
        "net_count": 7,
        "ix_count": 1,
        "type": "facility"
      }
    },
    {
      "type": "Feature",
      "geometry": {
        "type": "Point",
        "coordinates": [
          2.209917,
          48.785043
        ]
      },
      "properties": {
        "id": 231,
        "name": "Multicoms Paris (Velizy)",
        "address": "6 All\u00e9e Lat\u00e9co\u00e8re",
        "net_count": 1,
        "ix_count": 0,
        "type": "facility"
      }
    },
    {
      "type": "Feature",
      "geometry": {
        "type": "Point",
        "coordinates": [
          -0.557421,
          44.889099
        ]
      },
      "properties": {
        "id": 232,
        "name": "SFR Netcenter Bordeaux",
        "address": "3 Rue du Dr Gabriel P\u00e9ri",
        "net_count": 24,
        "ix_count": 0,
        "type": "facility"
      }
    },
    {
      "type": "Feature",
      "geometry": {
        "type": "Point",
        "coordinates": [
          7.781145,
          48.569149
        ]
      },
      "properties": {
        "id": 233,
        "name": "SFR Netcenter Strasbourg",
        "address": "1 rue du Havre",
        "net_count": 34,
        "ix_count": 1,
        "type": "facility"
      }
    },
    {
      "type": "Feature",
      "geometry": {
        "type": "Point",
        "coordinates": [
          -83.921438,
          35.965586
        ]
      },
      "properties": {
        "id": 234,
        "name": "Peace Communications  KNX1",
        "address": "500 W. Summit Hill",
        "net_count": 5,
        "ix_count": 0,
        "type": "facility"
      }
    },
    {
      "type": "Feature",
      "geometry": {
        "type": "Point",
        "coordinates": [
          5.169722,
          52.241526
        ]
      },
      "properties": {
        "id": 235,
        "name": "Mediagateway",
        "address": "Koos Postemalaan 2",
        "net_count": 25,
        "ix_count": 1,
        "type": "facility"
      }
    },
    {
      "type": "Feature",
      "geometry": {
        "type": "Point",
        "coordinates": [
          4.842597,
          52.399861
        ]
      },
      "properties": {
        "id": 236,
        "name": "Digital Realty Amsterdam AMS1, AMS4",
        "address": "Gyroscoopweg 60-62",
        "net_count": 9,
        "ix_count": 0,
        "type": "facility"
      }
    },
    {
      "type": "Feature",
      "geometry": {
        "type": "Point",
        "coordinates": [
          4.788162,
          52.29257
        ]
      },
      "properties": {
        "id": 238,
        "name": "NorthC Oude Meer",
        "address": "Fokkerweg 300",
        "net_count": 24,
        "ix_count": 1,
        "type": "facility"
      }
    },
    {
      "type": "Feature",
      "geometry": {
        "type": "Point",
        "coordinates": [
          4.774186,
          52.259795
        ]
      },
      "properties": {
        "id": 239,
        "name": "NorthC Aalsmeer",
        "address": "Lakenblekerstraat 13",
        "net_count": 4,
        "ix_count": 1,
        "type": "facility"
      }
    },
    {
      "type": "Feature",
      "geometry": {
        "type": "Point",
        "coordinates": [
          10.95877,
          50.254995
        ]
      },
      "properties": {
        "id": 241,
        "name": "UNITED COLO GmbH / NGZ-Server.de Coburg",
        "address": "Sonntagsanger 1",
        "net_count": 0,
        "ix_count": 0,
        "type": "facility"
      }
    },
    {
      "type": "Feature",
      "geometry": {
        "type": "Point",
        "coordinates": [
          -1.603213,
          54.972886
        ]
      },
      "properties": {
        "id": 243,
        "name": "Pulsant Newcastle NE-1 (Central)",
        "address": "5 Bridge View",
        "net_count": 6,
        "ix_count": 0,
        "type": "facility"
      }
    },
    {
      "type": "Feature",
      "geometry": {
        "type": "Point",
        "coordinates": [
          6.300252,
          51.954184
        ]
      },
      "properties": {
        "id": 245,
        "name": "InterDC Doetinchem",
        "address": "1 Gildenbroederslaan",
        "net_count": 12,
        "ix_count": 1,
        "type": "facility"
      }
    },
    {
      "type": "Feature",
      "geometry": {
        "type": "Point",
        "coordinates": [
          -74.00536,
          40.726019
        ]
      },
      "properties": {
        "id": 246,
        "name": "Looking Glass Networks NYC Node",
        "address": "150 Varick Street",
        "net_count": 0,
        "ix_count": 0,
        "type": "facility"
      }
    },
    {
      "type": "Feature",
      "geometry": {
        "type": "Point",
        "coordinates": [
          -0.0725,
          51.513915
        ]
      },
      "properties": {
        "id": 248,
        "name": "Level(3) London (Braham Street)",
        "address": "6 Braham St",
        "net_count": 7,
        "ix_count": 0,
        "type": "facility"
      }
    },
    {
      "type": "Feature",
      "geometry": {
        "type": "Point",
        "coordinates": [
          -84.383731,
          33.765138
        ]
      },
      "properties": {
        "id": 249,
        "name": "Level(3) Atlanta (Courtland)",
        "address": "345 Courtland St Ne",
        "net_count": 2,
        "ix_count": 0,
        "type": "facility"
      }
    },
    {
      "type": "Feature",
      "geometry": {
        "type": "Point",
        "coordinates": [
          -87.639611,
          41.880436
        ]
      },
      "properties": {
        "id": 250,
        "name": "Level(3) Chicago (Canal)",
        "address": "111 Canal, Suite 200",
        "net_count": 3,
        "ix_count": 0,
        "type": "facility"
      }
    },
    {
      "type": "Feature",
      "geometry": {
        "type": "Point",
        "coordinates": [
          3.887893,
          43.60956
        ]
      },
      "properties": {
        "id": 252,
        "name": "Cogent Montpellier",
        "address": "189 place du 56e R\u00e9giment d'Artillerie",
        "net_count": 16,
        "ix_count": 1,
        "type": "facility"
      }
    },
    {
      "type": "Feature",
      "geometry": {
        "type": "Point",
        "coordinates": [
          -0.082993,
          51.522955
        ]
      },
      "properties": {
        "id": 254,
        "name": "Redcentric London Data Centre",
        "address": "80 Clifton Street",
        "net_count": 38,
        "ix_count": 0,
        "type": "facility"
      }
    },
    {
      "type": "Feature",
      "geometry": {
        "type": "Point",
        "coordinates": [
          -106.650102,
          35.084663
        ]
      },
      "properties": {
        "id": 256,
        "name": "ServerCondo-219 Albuquerque",
        "address": "219 Central Ave NW",
        "net_count": 0,
        "ix_count": 0,
        "type": "facility"
      }
    },
    {
      "type": "Feature",
      "geometry": {
        "type": "Point",
        "coordinates": [
          17.943347,
          59.405682
        ]
      },
      "properties": {
        "id": 258,
        "name": "STOKAB KN3, Kista",
        "address": "Borgafjordsgatan 15",
        "net_count": 6,
        "ix_count": 0,
        "type": "facility"
      }
    },
    {
      "type": "Feature",
      "geometry": {
        "type": "Point",
        "coordinates": [
          17.953487,
          59.406342
        ]
      },
      "properties": {
        "id": 259,
        "name": "MCI Stockholm (Kista)",
        "address": "Torshamnsgatan 27",
        "net_count": 0,
        "ix_count": 0,
        "type": "facility"
      }
    },
    {
      "type": "Feature",
      "geometry": {
        "type": "Point",
        "coordinates": [
          16.356475,
          48.213465
        ]
      },
      "properties": {
        "id": 260,
        "name": "VIVI Vienna (Wien)",
        "address": "Liebiggasse 9",
        "net_count": 6,
        "ix_count": 0,
        "type": "facility"
      }
    },
    {
      "type": "Feature",
      "geometry": {
        "type": "Point",
        "coordinates": [
          6.86597,
          51.18875
        ]
      },
      "properties": {
        "id": 261,
        "name": "Lumen Duesseldorf",
        "address": "In der Steele 35",
        "net_count": 0,
        "ix_count": 0,
        "type": "facility"
      }
    },
    {
      "type": "Feature",
      "geometry": {
        "type": "Point",
        "coordinates": [
          4.94859,
          52.29643
        ]
      },
      "properties": {
        "id": 262,
        "name": "Level(3) Amsterdam",
        "address": "STEKKENBERGWEG 4",
        "net_count": 2,
        "ix_count": 0,
        "type": "facility"
      }
    },
    {
      "type": "Feature",
      "geometry": {
        "type": "Point",
        "coordinates": [
          7.259722,
          43.70338
        ]
      },
      "properties": {
        "id": 264,
        "name": "Cogent Nice",
        "address": "16 Avenue Thiers",
        "net_count": 6,
        "ix_count": 0,
        "type": "facility"
      }
    },
    {
      "type": "Feature",
      "geometry": {
        "type": "Point",
        "coordinates": [
          7.073109,
          43.609448
        ]
      },
      "properties": {
        "id": 265,
        "name": "Cogent Antibes",
        "address": "282 route des Cistes",
        "net_count": 6,
        "ix_count": 0,
        "type": "facility"
      }
    },
    {
      "type": "Feature",
      "geometry": {
        "type": "Point",
        "coordinates": [
          1.423103,
          43.620447
        ]
      },
      "properties": {
        "id": 266,
        "name": "Cogent Toulouse",
        "address": "125bis ch du Sang de Serp",
        "net_count": 18,
        "ix_count": 1,
        "type": "facility"
      }
    },
    {
      "type": "Feature",
      "geometry": {
        "type": "Point",
        "coordinates": [
          -82.994861,
          39.968171
        ]
      },
      "properties": {
        "id": 267,
        "name": "Citynet Columbus",
        "address": "251 Neilston St.",
        "net_count": 3,
        "ix_count": 1,
        "type": "facility"
      }
    },
    {
      "type": "Feature",
      "geometry": {
        "type": "Point",
        "coordinates": [
          -80.003614,
          40.447383
        ]
      },
      "properties": {
        "id": 268,
        "name": "Citynet Pittsburgh",
        "address": "Allegheny Center Mall",
        "net_count": 4,
        "ix_count": 0,
        "type": "facility"
      }
    },
    {
      "type": "Feature",
      "geometry": {
        "type": "Point",
        "coordinates": [
          26.115913,
          44.419772
        ]
      },
      "properties": {
        "id": 269,
        "name": "BUCH-Facility Bucharest",
        "address": "23-25 Nerva Traian",
        "net_count": 0,
        "ix_count": 0,
        "type": "facility"
      }
    },
    {
      "type": "Feature",
      "geometry": {
        "type": "Point",
        "coordinates": [
          -3.295901,
          55.930562
        ]
      },
      "properties": {
        "id": 271,
        "name": "Pulsant Edinburgh SC-1 (South Gyle)",
        "address": "The Clocktower Estate, Flassches Yard",
        "net_count": 36,
        "ix_count": 1,
        "type": "facility"
      }
    },
    {
      "type": "Feature",
      "geometry": {
        "type": "Point",
        "coordinates": [
          -86.170711,
          39.759534
        ]
      },
      "properties": {
        "id": 273,
        "name": "Citynet Indianapolis",
        "address": "701 W. Henry St.",
        "net_count": 1,
        "ix_count": 0,
        "type": "facility"
      }
    },
    {
      "type": "Feature",
      "geometry": {
        "type": "Point",
        "coordinates": [
          6.81752,
          51.267301
        ]
      },
      "properties": {
        "id": 274,
        "name": "WIIT Datacenter DUS1, DUS2, DUS3, DUS4, DUS6, DUS7",
        "address": "Am Gatherhof 44",
        "net_count": 103,
        "ix_count": 8,
        "type": "facility"
      }
    },
    {
      "type": "Feature",
      "geometry": {
        "type": "Point",
        "coordinates": [
          -122.680792,
          45.521366
        ]
      },
      "properties": {
        "id": 275,
        "name": "The Pittock",
        "address": "921 SW Washington St",
        "net_count": 69,
        "ix_count": 1,
        "type": "facility"
      }
    },
    {
      "type": "Feature",
      "geometry": {
        "type": "Point",
        "coordinates": [
          8.601436,
          50.128192
        ]
      },
      "properties": {
        "id": 277,
        "name": "NTT Frankfurt 1 Data Center (FRA1)",
        "address": "Eschborner Landstrasse 100",
        "net_count": 118,
        "ix_count": 6,
        "type": "facility"
      }
    },
    {
      "type": "Feature",
      "geometry": {
        "type": "Point",
        "coordinates": [
          4.503638,
          50.877572
        ]
      },
      "properties": {
        "id": 278,
        "name": "Mobistar Nossegem fka Versatel Nossegem",
        "address": "Leuvensesteenweg 641",
        "net_count": 5,
        "ix_count": 0,
        "type": "facility"
      }
    },
    {
      "type": "Feature",
      "geometry": {
        "type": "Point",
        "coordinates": [
          -74.06912,
          40.78616
        ]
      },
      "properties": {
        "id": 279,
        "name": "Evoque_NYC3 - Secaucus",
        "address": "15 Enterprise Avenue N",
        "net_count": 12,
        "ix_count": 1,
        "type": "facility"
      }
    },
    {
      "type": "Feature",
      "geometry": {
        "type": "Point",
        "coordinates": [
          -6.415382,
          53.296287
        ]
      },
      "properties": {
        "id": 280,
        "name": "Eircom Dublin (Citywest)",
        "address": "Unit 4050, Kingswood Avenue",
        "net_count": 4,
        "ix_count": 0,
        "type": "facility"
      }
    },
    {
      "type": "Feature",
      "geometry": {
        "type": "Point",
        "coordinates": [
          -71.269187,
          42.395346
        ]
      },
      "properties": {
        "id": 281,
        "name": "Equinix BO1 - Boston, Waltham",
        "address": "74 West Street",
        "net_count": 3,
        "ix_count": 0,
        "type": "facility"
      }
    },
    {
      "type": "Feature",
      "geometry": {
        "type": "Point",
        "coordinates": [
          103.789842,
          1.295229
        ]
      },
      "properties": {
        "id": 282,
        "name": "Equinix SG1 - Singapore",
        "address": "20 Ayer Rajah Crescent",
        "net_count": 460,
        "ix_count": 10,
        "type": "facility"
      }
    },
    {
      "type": "Feature",
      "geometry": {
        "type": "Point",
        "coordinates": [
          -87.631453,
          41.876212
        ]
      },
      "properties": {
        "id": 283,
        "name": "365 Data Centers Chicago (CH6)",
        "address": "427 S. La Salle",
        "net_count": 21,
        "ix_count": 2,
        "type": "facility"
      }
    },
    {
      "type": "Feature",
      "geometry": {
        "type": "Point",
        "coordinates": [
          4.450532,
          50.885261
        ]
      },
      "properties": {
        "id": 284,
        "name": "MCI/Verizon Brussels (Diegem) E",
        "address": "Culliganlaan 2e",
        "net_count": 2,
        "ix_count": 0,
        "type": "facility"
      }
    },
    {
      "type": "Feature",
      "geometry": {
        "type": "Point",
        "coordinates": [
          4.450532,
          50.885261
        ]
      },
      "properties": {
        "id": 285,
        "name": "MCI/Verizon Brussels (Diegem) H",
        "address": "Culliganlaan 2/H",
        "net_count": 0,
        "ix_count": 0,
        "type": "facility"
      }
    },
    {
      "type": "Feature",
      "geometry": {
        "type": "Point",
        "coordinates": [
          -77.029149,
          38.902918
        ]
      },
      "properties": {
        "id": 286,
        "name": "CoreSite - Washington,DC (DC1)",
        "address": "1275 K Street, NW",
        "net_count": 14,
        "ix_count": 2,
        "type": "facility"
      }
    },
    {
      "type": "Feature",
      "geometry": {
        "type": "Point",
        "coordinates": [
          8.629585,
          50.1009
        ]
      },
      "properties": {
        "id": 290,
        "name": "aixit Frankfurt",
        "address": "Rebst\u00f6cker Stra\u00dfe 55",
        "net_count": 20,
        "ix_count": 1,
        "type": "facility"
      }
    },
    {
      "type": "Feature",
      "geometry": {
        "type": "Point",
        "coordinates": [
          8.63429,
          50.101713
        ]
      },
      "properties": {
        "id": 291,
        "name": "NewColo Frankfurt",
        "address": "Mainzer Landstrasse 351-353",
        "net_count": 23,
        "ix_count": 2,
        "type": "facility"
      }
    },
    {
      "type": "Feature",
      "geometry": {
        "type": "Point",
        "coordinates": [
          -121.954136,
          37.378042
        ]
      },
      "properties": {
        "id": 293,
        "name": "Evocative SJC3",
        "address": "3080 Raymond Street",
        "net_count": 12,
        "ix_count": 0,
        "type": "facility"
      }
    },
    {
      "type": "Feature",
      "geometry": {
        "type": "Point",
        "coordinates": [
          7.660825,
          45.090688
        ]
      },
      "properties": {
        "id": 294,
        "name": "ITGate PdF (TRN1/TRN2)",
        "address": "Corso Svizzera 185",
        "net_count": 23,
        "ix_count": 2,
        "type": "facility"
      }
    },
    {
      "type": "Feature",
      "geometry": {
        "type": "Point",
        "coordinates": [
          4.503629,
          50.872026
        ]
      },
      "properties": {
        "id": 295,
        "name": "AtlasEdge DC Brussels 1&2",
        "address": "Mercuriusstraat 30, Nossegem",
        "net_count": 7,
        "ix_count": 1,
        "type": "facility"
      }
    },
    {
      "type": "Feature",
      "geometry": {
        "type": "Point",
        "coordinates": [
          4.933657,
          52.33538
        ]
      },
      "properties": {
        "id": 299,
        "name": "Global Crossing Joop",
        "address": "Geesinkweeg 401 404,1096",
        "net_count": 4,
        "ix_count": 0,
        "type": "facility"
      }
    },
    {
      "type": "Feature",
      "geometry": {
        "type": "Point",
        "coordinates": [
          19.055712,
          47.51796
        ]
      },
      "properties": {
        "id": 300,
        "name": "BIX Building (Victor Hugo street)",
        "address": "Victor Hugo utca 18-22.",
        "net_count": 56,
        "ix_count": 1,
        "type": "facility"
      }
    },
    {
      "type": "Feature",
      "geometry": {
        "type": "Point",
        "coordinates": [
          19.107458,
          47.448989
        ]
      },
      "properties": {
        "id": 301,
        "name": "Dataplex Budapest",
        "address": "Asztalos Sandor utca 13.",
        "net_count": 56,
        "ix_count": 2,
        "type": "facility"
      }
    },
    {
      "type": "Feature",
      "geometry": {
        "type": "Point",
        "coordinates": [
          5.460509,
          51.501281
        ]
      },
      "properties": {
        "id": 304,
        "name": "Signet DC1",
        "address": "Science Park Eindhoven 5218",
        "net_count": 2,
        "ix_count": 0,
        "type": "facility"
      }
    },
    {
      "type": "Feature",
      "geometry": {
        "type": "Point",
        "coordinates": [
          -4.283217,
          55.851165
        ]
      },
      "properties": {
        "id": 305,
        "name": "iomart DC1 Glasgow",
        "address": "88 Middlesex Street",
        "net_count": 7,
        "ix_count": 0,
        "type": "facility"
      }
    },
    {
      "type": "Feature",
      "geometry": {
        "type": "Point",
        "coordinates": [
          2.350664,
          48.927166
        ]
      },
      "properties": {
        "id": 306,
        "name": "Equinix PA2 - Paris, Saint-Denis",
        "address": "Rue Ambroise Croizat, 114",
        "net_count": 139,
        "ix_count": 3,
        "type": "facility"
      }
    },
    {
      "type": "Feature",
      "geometry": {
        "type": "Point",
        "coordinates": [
          -86.755786,
          36.102726
        ]
      },
      "properties": {
        "id": 311,
        "name": "Level(3) Nashville (Sidco Drive)",
        "address": "2992 Sidco Drive",
        "net_count": 3,
        "ix_count": 0,
        "type": "facility"
      }
    },
    {
      "type": "Feature",
      "geometry": {
        "type": "Point",
        "coordinates": [
          -86.776316,
          36.162621
        ]
      },
      "properties": {
        "id": 312,
        "name": "IRIS - Nashville",
        "address": "211 Commerce Street",
        "net_count": 1,
        "ix_count": 0,
        "type": "facility"
      }
    },
    {
      "type": "Feature",
      "geometry": {
        "type": "Point",
        "coordinates": [
          -84.517261,
          39.102789
        ]
      },
      "properties": {
        "id": 314,
        "name": "Cincinnatti Bell - West 7th Street",
        "address": "209 West 7 Street",
        "net_count": 0,
        "ix_count": 0,
        "type": "facility"
      }
    },
    {
      "type": "Feature",
      "geometry": {
        "type": "Point",
        "coordinates": [
          -84.50313,
          39.102533
        ]
      },
      "properties": {
        "id": 315,
        "name": "Level(3) Cincinnati",
        "address": "400 Pike Street",
        "net_count": 1,
        "ix_count": 0,
        "type": "facility"
      }
    },
    {
      "type": "Feature",
      "geometry": {
        "type": "Point",
        "coordinates": [
          -79.384228,
          43.644632
        ]
      },
      "properties": {
        "id": 316,
        "name": "Neutral Data Toronto",
        "address": "151 Front St. W.",
        "net_count": 6,
        "ix_count": 1,
        "type": "facility"
      }
    },
    {
      "type": "Feature",
      "geometry": {
        "type": "Point",
        "coordinates": [
          -118.256985,
          34.048275
        ]
      },
      "properties": {
        "id": 317,
        "name": "Telehouse - Los Angeles",
        "address": "626 Wilshire Blvd #600",
        "net_count": 5,
        "ix_count": 1,
        "type": "facility"
      }
    },
    {
      "type": "Feature",
      "geometry": {
        "type": "Point",
        "coordinates": [
          23.32401,
          42.693819
        ]
      },
      "properties": {
        "id": 328,
        "name": "BTC Core Network Sofia",
        "address": "Gurko 4",
        "net_count": 4,
        "ix_count": 0,
        "type": "facility"
      }
    },
    {
      "type": "Feature",
      "geometry": {
        "type": "Point",
        "coordinates": [
          -74.033401,
          40.726597
        ]
      },
      "properties": {
        "id": 330,
        "name": "Newport Financial Center",
        "address": "111 Pavonia Ave.",
        "net_count": 1,
        "ix_count": 0,
        "type": "facility"
      }
    },
    {
      "type": "Feature",
      "geometry": {
        "type": "Point",
        "coordinates": [
          13.428412,
          52.452868
        ]
      },
      "properties": {
        "id": 331,
        "name": "Level(3) Berlin",
        "address": "Gradestrasse 60",
        "net_count": 28,
        "ix_count": 2,
        "type": "facility"
      }
    },
    {
      "type": "Feature",
      "geometry": {
        "type": "Point",
        "coordinates": [
          -90.195238,
          38.625536
        ]
      },
      "properties": {
        "id": 332,
        "name": "Netrality St. Louis - 900 Walnut",
        "address": "900 Walnut - Netrality Data Center Meet Me Room",
        "net_count": 38,
        "ix_count": 4,
        "type": "facility"
      }
    },
    {
      "type": "Feature",
      "geometry": {
        "type": "Point",
        "coordinates": [
          -118.383778,
          33.921239
        ]
      },
      "properties": {
        "id": 333,
        "name": "Equinix LA3/LA4 - Los Angeles, El Segundo",
        "address": "445 North Douglas Street",
        "net_count": 42,
        "ix_count": 3,
        "type": "facility"
      }
    },
    {
      "type": "Feature",
      "geometry": {
        "type": "Point",
        "coordinates": [
          -0.708278,
          51.500351
        ]
      },
      "properties": {
        "id": 334,
        "name": "Pulsant Maidenhead SE-2",
        "address": "BlueSquare House",
        "net_count": 12,
        "ix_count": 0,
        "type": "facility"
      }
    },
    {
      "type": "Feature",
      "geometry": {
        "type": "Point",
        "coordinates": [
          1.295809,
          51.271106
        ]
      },
      "properties": {
        "id": 335,
        "name": "The Bunker (Ash)",
        "address": "Ash Radar Station",
        "net_count": 5,
        "ix_count": 0,
        "type": "facility"
      }
    },
    {
      "type": "Feature",
      "geometry": {
        "type": "Point",
        "coordinates": [
          8.495621,
          47.38338
        ]
      },
      "properties": {
        "id": 336,
        "name": "colozueri.ch Zurich",
        "address": "Badenerstrasse 569",
        "net_count": 55,
        "ix_count": 4,
        "type": "facility"
      }
    },
    {
      "type": "Feature",
      "geometry": {
        "type": "Point",
        "coordinates": [
          106.820607,
          -6.208937
        ]
      },
      "properties": {
        "id": 340,
        "name": "Biznet Jakarta",
        "address": "MidPlaza 2, 8th Floor. Jl. Jend. Sudirman 10-11",
        "net_count": 11,
        "ix_count": 1,
        "type": "facility"
      }
    },
    {
      "type": "Feature",
      "geometry": {
        "type": "Point",
        "coordinates": [
          10.810183,
          59.924726
        ]
      },
      "properties": {
        "id": 345,
        "name": "STACK EMEA - OSL01",
        "address": "Ulvenveien 89b",
        "net_count": 46,
        "ix_count": 2,
        "type": "facility"
      }
    },
    {
      "type": "Feature",
      "geometry": {
        "type": "Point",
        "coordinates": [
          10.71639,
          59.942329
        ]
      },
      "properties": {
        "id": 346,
        "name": "Forskningsparken Oslo",
        "address": "Gaustadall\u00e9en 21",
        "net_count": 10,
        "ix_count": 0,
        "type": "facility"
      }
    },
    {
      "type": "Feature",
      "geometry": {
        "type": "Point",
        "coordinates": [
          -79.332708,
          43.727326
        ]
      },
      "properties": {
        "id": 347,
        "name": "Level(3) Toronto",
        "address": "60 Garamond Court",
        "net_count": 4,
        "ix_count": 0,
        "type": "facility"
      }
    },
    {
      "type": "Feature",
      "geometry": {
        "type": "Point",
        "coordinates": [
          -74.007652,
          40.743136
        ]
      },
      "properties": {
        "id": 348,
        "name": "Level(3) New York",
        "address": "85 10th Avenue",
        "net_count": 4,
        "ix_count": 1,
        "type": "facility"
      }
    },
    {
      "type": "Feature",
      "geometry": {
        "type": "Point",
        "coordinates": [
          37.551781,
          55.805323
        ]
      },
      "properties": {
        "id": 349,
        "name": "Linxdatacenter (Moscow)",
        "address": "8 Marta 14",
        "net_count": 24,
        "ix_count": 3,
        "type": "facility"
      }
    },
    {
      "type": "Feature",
      "geometry": {
        "type": "Point",
        "coordinates": [
          -74.173402,
          40.736844
        ]
      },
      "properties": {
        "id": 350,
        "name": "165 Halsey Meet-Me Room",
        "address": "165 Halsey St",
        "net_count": 86,
        "ix_count": 3,
        "type": "facility"
      }
    },
    {
      "type": "Feature",
      "geometry": {
        "type": "Point",
        "coordinates": [
          6.80715,
          51.219632
        ]
      },
      "properties": {
        "id": 351,
        "name": "Equinix DU1 - Dusseldorf",
        "address": "Albertstrasse 27",
        "net_count": 21,
        "ix_count": 2,
        "type": "facility"
      }
    },
    {
      "type": "Feature",
      "geometry": {
        "type": "Point",
        "coordinates": [
          -0.018318,
          51.494644
        ]
      },
      "properties": {
        "id": 352,
        "name": "London Hosting Centre",
        "address": "City Reach, 6 Greenwich View Place",
        "net_count": 33,
        "ix_count": 1,
        "type": "facility"
      }
    },
    {
      "type": "Feature",
      "geometry": {
        "type": "Point",
        "coordinates": [
          -0.100964,
          51.528721
        ]
      },
      "properties": {
        "id": 354,
        "name": "Level(3) London (Goswell Road)",
        "address": "260-266 Goswell Road",
        "net_count": 39,
        "ix_count": 1,
        "type": "facility"
      }
    },
    {
      "type": "Feature",
      "geometry": {
        "type": "Point",
        "coordinates": [
          -73.219864,
          40.784184
        ]
      },
      "properties": {
        "id": 356,
        "name": "Crown Castle Brentwood (1650 Islip)",
        "address": "1650 Islip Ave",
        "net_count": 0,
        "ix_count": 0,
        "type": "facility"
      }
    },
    {
      "type": "Feature",
      "geometry": {
        "type": "Point",
        "coordinates": [
          13.430493,
          52.452542
        ]
      },
      "properties": {
        "id": 357,
        "name": "Versatel Berlin",
        "address": "Gradestrasse 40",
        "net_count": 1,
        "ix_count": 0,
        "type": "facility"
      }
    },
    {
      "type": "Feature",
      "geometry": {
        "type": "Point",
        "coordinates": [
          -90.195813,
          38.632728
        ]
      },
      "properties": {
        "id": 362,
        "name": "710 Tucker St Louis",
        "address": "710 North Tucker",
        "net_count": 3,
        "ix_count": 0,
        "type": "facility"
      }
    },
    {
      "type": "Feature",
      "geometry": {
        "type": "Point",
        "coordinates": [
          -118.235357,
          34.058096
        ]
      },
      "properties": {
        "id": 363,
        "name": "CoreSite - Los Angeles (LA2)",
        "address": "900 N. Alameda",
        "net_count": 181,
        "ix_count": 3,
        "type": "facility"
      }
    },
    {
      "type": "Feature",
      "geometry": {
        "type": "Point",
        "coordinates": [
          30.629527,
          50.551468
        ]
      },
      "properties": {
        "id": 365,
        "name": "NewTelco Kiev",
        "address": "Gaidara 50",
        "net_count": 159,
        "ix_count": 16,
        "type": "facility"
      }
    },
    {
      "type": "Feature",
      "geometry": {
        "type": "Point",
        "coordinates": [
          8.666501,
          50.105084
        ]
      },
      "properties": {
        "id": 367,
        "name": "INTERNIC Frankfurt",
        "address": "Wiesenh\u00fcttenplatz 26",
        "net_count": 8,
        "ix_count": 1,
        "type": "facility"
      }
    },
    {
      "type": "Feature",
      "geometry": {
        "type": "Point",
        "coordinates": [
          -86.772516,
          36.158837
        ]
      },
      "properties": {
        "id": 368,
        "name": "XO Nashville",
        "address": "101 Molloy Street",
        "net_count": 2,
        "ix_count": 0,
        "type": "facility"
      }
    },
    {
      "type": "Feature",
      "geometry": {
        "type": "Point",
        "coordinates": [
          -89.386996,
          43.073336
        ]
      },
      "properties": {
        "id": 372,
        "name": "Network 222",
        "address": "222 West Washington Avenue",
        "net_count": 13,
        "ix_count": 1,
        "type": "facility"
      }
    },
    {
      "type": "Feature",
      "geometry": {
        "type": "Point",
        "coordinates": [
          4.665267,
          52.391165
        ]
      },
      "properties": {
        "id": 374,
        "name": "Iron Mountain Data Center - Amsterdam (AMS-1)",
        "address": "J.W. Lucasweg 35",
        "net_count": 149,
        "ix_count": 8,
        "type": "facility"
      }
    },
    {
      "type": "Feature",
      "geometry": {
        "type": "Point",
        "coordinates": [
          4.943121,
          52.299929
        ]
      },
      "properties": {
        "id": 375,
        "name": "Equinix AM1/AM2 - Amsterdam, Luttenbergweg",
        "address": "Luttenbergweg 4",
        "net_count": 134,
        "ix_count": 11,
        "type": "facility"
      }
    },
    {
      "type": "Feature",
      "geometry": {
        "type": "Point",
        "coordinates": [
          6.142697,
          52.488492
        ]
      },
      "properties": {
        "id": 376,
        "name": "Equinix ZW1 - Zwolle",
        "address": "Telfordstraat 3",
        "net_count": 11,
        "ix_count": 1,
        "type": "facility"
      }
    },
    {
      "type": "Feature",
      "geometry": {
        "type": "Point",
        "coordinates": [
          8.64637,
          52.12009
        ]
      },
      "properties": {
        "id": 377,
        "name": "DTS DataCenter Herford",
        "address": "Schrewestrasse  4-8",
        "net_count": 1,
        "ix_count": 0,
        "type": "facility"
      }
    },
    {
      "type": "Feature",
      "geometry": {
        "type": "Point",
        "coordinates": [
          -117.851779,
          33.729872
        ]
      },
      "properties": {
        "id": 378,
        "name": "OCDC Orange County Datacenter Santa Ana",
        "address": "1400 S. Grand",
        "net_count": 0,
        "ix_count": 0,
        "type": "facility"
      }
    },
    {
      "type": "Feature",
      "geometry": {
        "type": "Point",
        "coordinates": [
          -108.512522,
          45.781098
        ]
      },
      "properties": {
        "id": 380,
        "name": "iConnect Billings Fiber Hotel",
        "address": "Granite Tower",
        "net_count": 7,
        "ix_count": 0,
        "type": "facility"
      }
    },
    {
      "type": "Feature",
      "geometry": {
        "type": "Point",
        "coordinates": [
          -113.989835,
          46.87101
        ]
      },
      "properties": {
        "id": 381,
        "name": "iConnect Missoula",
        "address": "Broadway Center",
        "net_count": 7,
        "ix_count": 0,
        "type": "facility"
      }
    },
    {
      "type": "Feature",
      "geometry": {
        "type": "Point",
        "coordinates": [
          149.133934,
          -35.251849
        ]
      },
      "properties": {
        "id": 382,
        "name": "TransACT Telehouse",
        "address": "470 Northbourne Ave",
        "net_count": 14,
        "ix_count": 3,
        "type": "facility"
      }
    },
    {
      "type": "Feature",
      "geometry": {
        "type": "Point",
        "coordinates": [
          12.925524,
          57.71545
        ]
      },
      "properties": {
        "id": 383,
        "name": "Berget Boras",
        "address": "Bockasj\u00f6gatan 17",
        "net_count": 1,
        "ix_count": 0,
        "type": "facility"
      }
    },
    {
      "type": "Feature",
      "geometry": {
        "type": "Point",
        "coordinates": [
          3.868353,
          43.596863
        ]
      },
      "properties": {
        "id": 386,
        "name": "SFR Netcenter Montpellier",
        "address": "488 avenue Villeneuve d'Angouleme",
        "net_count": 3,
        "ix_count": 0,
        "type": "facility"
      }
    },
    {
      "type": "Feature",
      "geometry": {
        "type": "Point",
        "coordinates": [
          103.893828,
          1.336723
        ]
      },
      "properties": {
        "id": 388,
        "name": "Global Switch Singapore",
        "address": "2 Tai Seng Avenue",
        "net_count": 117,
        "ix_count": 7,
        "type": "facility"
      }
    },
    {
      "type": "Feature",
      "geometry": {
        "type": "Point",
        "coordinates": [
          -104.995636,
          39.745636
        ]
      },
      "properties": {
        "id": 389,
        "name": "CoreSite - Denver (DE1)",
        "address": "910 15th Street",
        "net_count": 101,
        "ix_count": 3,
        "type": "facility"
      }
    },
    {
      "type": "Feature",
      "geometry": {
        "type": "Point",
        "coordinates": [
          37.652576,
          55.770625
        ]
      },
      "properties": {
        "id": 390,
        "name": "CSS MPS Moscow",
        "address": "Kalanchevskaya str., 2/1",
        "net_count": 11,
        "ix_count": 1,
        "type": "facility"
      }
    },
    {
      "type": "Feature",
      "geometry": {
        "type": "Point",
        "coordinates": [
          -79.384228,
          43.644632
        ]
      },
      "properties": {
        "id": 391,
        "name": "Telehouse Canada",
        "address": "151 Front Street West",
        "net_count": 4,
        "ix_count": 0,
        "type": "facility"
      }
    },
    {
      "type": "Feature",
      "geometry": {
        "type": "Point",
        "coordinates": [
          -79.384128,
          43.644672
        ]
      },
      "properties": {
        "id": 392,
        "name": "Telehouse Toronto (151 Front St West)",
        "address": "151 Front Street West",
        "net_count": 136,
        "ix_count": 4,
        "type": "facility"
      }
    },
    {
      "type": "Feature",
      "geometry": {
        "type": "Point",
        "coordinates": [
          114.246038,
          22.266947
        ]
      },
      "properties": {
        "id": 393,
        "name": "HKCOLO - Sino Favour Centre",
        "address": "8/F,  1 On Yip Street",
        "net_count": 14,
        "ix_count": 1,
        "type": "facility"
      }
    },
    {
      "type": "Feature",
      "geometry": {
        "type": "Point",
        "coordinates": [
          -73.560097,
          45.499333
        ]
      },
      "properties": {
        "id": 394,
        "name": "740 Notre-Dame West Montreal",
        "address": "740 Notre-Dame West",
        "net_count": 3,
        "ix_count": 0,
        "type": "facility"
      }
    },
    {
      "type": "Feature",
      "geometry": {
        "type": "Point",
        "coordinates": [
          -82.459331,
          27.947729
        ]
      },